city,lat,lon,temp_max,temp,humidity,cloudiness,wind_speed,country,date
georgetown,5.4112,100.3354,299.79,298.79,92,40,1.34,MY,1635205751
vrede,-27.4257,29.1659,283.68,283.68,94,99,1.96,ZA,1635205902
khatanga,71.9667,102.5,257.97,257.97,96,100,2.96,RU,1635205902
methoni,36.8197,21.7049,288.83,287.07,67,80,4.44,GR,1635205902
sakakah,29.9697,40.2064,292.91,292.91,29,0,2.71,SA,1635205903
la asuncion,11.0333,-63.8628,299.59,299.59,83,99,7.34,VE,1635205903
chitral,35.8462,71.7858,283.31,283.31,53,1,2.23,PK,1635205904
ushuaia,-54.8,-68.3,274.96,274.96,87,40,10.29,AR,1635205905
naze,28.3667,129.4833,294.66,294.66,60,0,5.04,JP,1635205905
kargopol,61.5071,38.9456,278.05,278.05,97,100,4.06,RU,1635205906
vanavara,60.34,102.2797,274.85,274.85,95,100,5.63,RU,1635205367
punta arenas,-53.15,-70.9167,278.21,278.21,70,40,4.12,CL,1635205907
dandong,40.1292,124.3947,285.21,285.21,76,84,2.92,CN,1635205907
mehamn,71.0357,27.8492,273.64,273.64,80,89,12.06,NO,1635205428
saskylakh,71.9167,114.0833,254.93,254.93,97,100,1.19,RU,1635205281
hermanus,-34.4187,19.2345,289.21,289.21,85,57,5.99,ZA,1635205908
ereymentau,51.6199,73.1033,282.23,282.23,45,100,6.86,KZ,1635205909
port elizabeth,-33.918,25.5701,290.31,290.31,88,0,5.66,ZA,1635205909
barrow,71.2906,-156.7887,270.16,270.16,80,90,6.17,US,1635205698
gat,31.61,34.7642,292.82,291.88,83,0,1.34,IL,1635205910
tautira,-17.7333,-149.15,300.16,300.16,77,90,1.59,PF,1635205910
batemans bay,-35.7167,150.1833,293.26,290.95,46,3,2.79,AU,1635205364
severo-kurilsk,50.6789,156.125,280.9,280.9,72,14,5.6,RU,1635205911
hasaki,35.7333,140.8333,288.37,288.08,92,100,15.64,JP,1635205641
codrington,-38.2667,141.9667,287.27,287.27,53,46,4.12,AU,1635205382
pisco,-13.7,-76.2167,290.18,290.18,77,0,8.23,PE,1635205834
presidencia roque saenz pena,-26.7852,-60.4388,294.55,294.55,38,0,3.41,AR,1635205330
katsuura,35.1333,140.3,289.92,289.17,91,100,15.25,JP,1635205912
upernavik,72.7868,-56.1549,263.73,263.73,60,13,2.75,GL,1635205913
cap malheureux,-19.9842,57.6142,295.63,295.63,72,6,2.68,MU,1635205914
kapit,2.0167,112.9333,297.82,297.82,96,73,0.58,MY,1635205914
lokosovo,61.1333,74.8167,273.69,273.69,95,100,4.42,RU,1635205899
masuguru,-11.3667,38.4167,297.02,297.02,85,28,2.2,TZ,1635205915
port blair,11.6667,92.75,300.01,300.01,81,94,2.79,IN,1635205814
port alfred,-33.5906,26.891,290.88,290.88,82,29,6.58,ZA,1635205691
cape town,-33.9258,18.4232,290.42,289.65,64,0,1.34,ZA,1635205681
bandarbeyla,9.4942,50.8122,297.55,297.55,83,52,1.85,SO,1635205916
salima,-13.7804,34.4587,298.16,298.16,54,12,1.02,MW,1635205917
san rafael del sur,11.8485,-86.4384,304.69,304.69,88,27,1.55,NI,1635205917
rikitea,-23.1203,-134.9692,297.34,297.34,71,78,8.98,PF,1635205918
hobart,-42.8794,147.3294,287.6,286.1,60,75,3.6,AU,1635205721
garden city,42.3256,-83.331,283.12,281.9,90,90,0.89,US,1635205919
grootfontein,-19.5667,18.1167,292.91,292.91,22,22,3.6,NA,1635205920
albany,42.6001,-73.9662,287.45,283.37,91,100,1.95,US,1635205920
gizo,-8.103,156.8419,302.43,302.43,70,23,2.99,SB,1635205199
paso de los toros,-32.8167,-56.5167,297.34,297.34,59,0,4.42,UY,1635205921
general pico,-35.6566,-63.7568,294.69,294.69,23,0,2.23,AR,1635205921
malanje,-9.5402,16.341,290.87,290.87,94,87,0.67,AO,1635205847
ribeira grande,38.5167,-28.7,293.56,293.56,76,44,9.13,PT,1635205922
chulman,56.8479,124.9104,269.5,269.5,96,93,0.92,RU,1635205923
carnarvon,-24.8667,113.6333,292.19,292.19,63,75,7.2,AU,1635205628
marienburg,54.0359,19.0266,280.4,279.85,78,100,3.45,PL,1635205660
qaanaaq,77.484,-69.3632,257.16,257.16,62,68,6.75,GL,1635205687
thompson,55.7435,-97.8558,276.24,276.24,75,40,1.54,CA,1635205791
hithadhoo,-0.6,73.0833,301.46,301.46,69,82,7.37,MV,1635205357
adrar,20.5022,-10.0711,300.27,300.27,17,89,6.22,MR,1635205924
lorengau,-2.0226,147.2712,302.62,302.62,66,45,2.58,PG,1635205925
itarema,-2.9248,-39.9167,299.86,299.86,75,2,7.72,BR,1635205925
ilam,26.9167,87.9167,287.03,287.03,86,0,2.62,NP,1635205926
pevek,69.7008,170.3133,255.27,255.27,94,100,1.9,RU,1635205825
bluff,-46.6,168.3333,285.81,285.81,87,79,4.02,NZ,1635205824
elat,29.5581,34.9482,294.63,294.63,56,0,3.3,IL,1635205927
fairbanks,64.8378,-147.7164,272.65,271.21,91,90,0.0,US,1635205202
makrana,27.05,74.7167,292.18,292.18,64,0,2.45,IN,1635205928
miraflores,19.2167,-98.8083,293.17,292.52,81,77,1.81,MX,1635205695
mandera,3.9366,41.867,300.48,300.48,63,86,6.45,KE,1635205357
irtyshskiy,58.3333,68.1333,272.64,272.64,95,100,7.14,RU,1635205929
grand-lahou,5.1367,-5.0242,298.28,298.28,89,100,4.08,CI,1635205929
kathmandu,27.7167,85.3167,289.27,289.27,88,75,1.54,NP,1635205717
saint george,37.1041,-113.5841,299.41,296.73,29,1,2.24,US,1635205862
kinshasa,-4.3246,15.3215,298.33,297.36,88,20,0.51,CD,1635205756
cidreira,-30.1811,-50.2056,291.57,291.57,80,0,4.36,BR,1635205930
taitung,22.7583,121.1444,297.3,297.3,69,75,3.09,TW,1635205930
kapaa,22.0752,-159.319,299.92,299.29,83,90,1.79,US,1635205931
saldanha,-33.0117,17.9442,290.18,290.18,68,70,4.98,ZA,1635205251
cayenne,4.9333,-52.3333,298.76,298.76,90,75,1.79,GF,1635205931
khani,41.9563,42.9566,274.91,274.91,97,100,0.12,GE,1635205932
alofi,-19.0595,-169.9187,301.09,301.09,65,75,6.69,NU,1635205932
puerto ayora,-0.7393,-90.3518,293.46,293.46,93,88,2.24,EC,1635205816
acapulco,16.8634,-99.8901,301.05,301.05,83,90,0.0,MX,1635205393
vaini,-21.2,-175.2,300.24,300.24,74,20,5.14,TO,1635205933
hilo,19.7297,-155.09,301.0,299.31,76,40,5.66,US,1635205773
vaitape,-16.5167,-151.75,296.72,296.72,90,99,5.26,PF,1635205934
petropavlovsk-kamchatskiy,53.0452,158.6483,276.48,276.48,70,75,1.0,RU,1635205935
bertoua,4.5833,13.6833,293.23,293.23,96,86,0.56,CM,1635205415
alghero,40.5589,8.3181,285.2,285.2,94,0,1.03,IT,1635205935
bredasdorp,-34.5322,20.0403,287.77,287.77,88,40,3.6,ZA,1635205765
hambantota,6.1241,81.1185,299.21,299.21,82,99,4.57,LK,1635205805
terrace,54.5163,-128.6035,284.1,284.1,76,75,1.03,CA,1635205933
progreso,21.2833,-89.6667,302.65,302.65,82,73,4.68,MX,1635205937
ulagan,50.6321,87.9563,272.92,272.92,73,31,1.46,RU,1635205938
plouzane,48.3833,-4.6167,287.18,286.67,94,75,3.6,FR,1635205938
olafsvik,64.8945,-23.7142,275.21,275.21,70,50,2.63,IS,1635205346
huarmey,-10.0681,-78.1522,291.09,291.09,82,11,4.01,PE,1635205939
santa isabel do rio negro,-0.4139,-65.0192,298.17,298.17,92,99,0.77,BR,1635205939
liwale,-9.7667,37.9333,294.81,294.81,87,34,2.29,TZ,1635205940
asfi,32.2994,-9.2372,292.65,292.65,89,66,4.99,MA,1635205941
airai,-8.9266,125.4092,295.16,295.16,44,65,1.23,TL,1635205941
nikolskoye,59.7035,30.7861,280.38,279.77,90,100,4.14,RU,1635205825
yellowknife,62.456,-114.3525,278.94,278.64,94,90,4.12,CA,1635205942
east london,-33.0153,27.9116,290.89,290.89,84,93,4.73,ZA,1635205688
sitka,57.0531,-135.33,282.09,282.09,71,75,0.0,US,1635205229
zyryanka,65.75,150.85,257.9,257.9,86,84,2.1,RU,1635205943
mar del plata,-38.0023,-57.5575,288.16,287.82,64,0,0.45,AR,1635205876
tuktoyaktuk,69.4541,-133.0374,272.15,272.15,100,90,3.6,CA,1635205944
marsaxlokk,35.8419,14.5431,292.49,292.49,94,90,7.72,MT,1635205944
dikson,73.5069,80.5464,263.04,263.04,83,100,7.22,RU,1635205944
izhma,65.0083,53.9113,265.4,265.4,97,60,1.6,RU,1635205945
jogbani,26.4167,87.25,293.59,293.59,84,0,1.67,IN,1635205946
xuddur,4.1213,43.8894,295.71,295.71,82,70,5.04,SO,1635205946
kasungu,-13.0333,33.4833,295.62,295.62,52,41,4.3,MW,1635205947
mataura,-46.1927,168.8643,293.37,293.37,59,82,0.27,NZ,1635205948
ust-nera,64.5667,143.2,261.17,261.17,95,98,1.27,RU,1635205776
whitehorse,60.7161,-135.0538,272.58,272.39,80,90,3.58,CA,1635205899
cherskiy,68.75,161.3,249.7,249.7,95,99,1.12,RU,1635205715
atuona,-9.8,-139.0333,298.77,298.77,73,27,7.32,PF,1635205687
lasa,46.6166,10.7002,277.64,277.63,49,94,0.82,IT,1635205785
guerrero negro,27.9769,-114.0611,293.49,293.49,70,32,7.69,MX,1635205949
kloulklubed,7.0419,134.2556,302.09,302.09,63,27,4.1,PW,1635205950
ponta do sol,32.6667,-17.1,294.5,293.67,67,44,2.39,PT,1635205950
jamestown,42.097,-79.2353,287.77,286.79,91,75,1.34,US,1635205676
kaitong,44.8135,123.15,280.55,280.55,44,78,3.55,CN,1635205951
high prairie,55.4334,-116.4858,279.76,279.76,76,100,1.42,CA,1635205951
caravelas,-17.7125,-39.2481,297.12,297.12,93,100,1.91,BR,1635205371
salalah,17.0151,54.0924,296.92,296.92,70,70,0.52,OM,1635205952
broome,42.2506,-75.833,291.36,290.21,80,20,1.79,US,1635205230
constitucion,-35.3333,-72.4167,288.08,288.08,75,77,6.51,CL,1635205378
bambous virieux,-20.3428,57.7575,295.49,295.29,83,40,5.66,MU,1635205953
maniitsoq,65.4167,-52.9,272.81,272.81,45,0,4.32,GL,1635205438
saint-philippe,-21.3585,55.7679,294.9,293.88,80,39,5.88,RE,1635205954
ilebo,-4.3167,20.5833,293.69,293.69,99,68,0.26,CD,1635205955
rundu,-17.9333,19.7667,296.83,296.83,56,100,0.83,NA,1635205955
oranjemund,-28.55,16.4333,287.46,287.46,91,64,1.35,NA,1635205260
la rioja,42.25,-2.5,280.64,279.94,85,77,1.8,ES,1635205956
stornoway,58.2093,-6.3865,281.13,280.85,87,40,2.57,GB,1635205956
lebu,-37.6167,-73.65,284.57,284.57,92,6,6.12,CL,1635205957
souillac,-20.5167,57.5167,295.57,295.36,83,40,5.66,MU,1635205840
mantua,45.1667,10.7833,284.1,279.53,86,93,0.8,IT,1635205958
calamar,10.2511,-74.9146,300.12,300.12,92,84,3.14,CO,1635205958
nome,64.5011,-165.4064,270.19,270.19,69,90,6.17,US,1635205464
kutum,14.2,24.6667,295.26,295.26,24,49,4.06,SD,1635205959
clyde river,70.4692,-68.5914,269.28,269.28,74,90,1.03,CA,1635205960
lata,40.1629,-8.3327,288.05,288.03,92,0,1.6,PT,1635205389
faanui,-16.4833,-151.75,296.67,296.67,91,98,3.46,PF,1635205937
padang,-0.9492,100.3543,297.18,297.18,86,90,1.21,ID,1635205404
havoysund,70.9963,24.6622,271.64,271.64,85,99,11.24,NO,1635205961
broken hill,-31.95,141.4333,291.99,291.99,20,0,4.63,AU,1635205365
tigre,-34.426,-58.5796,299.15,296.53,38,0,2.06,AR,1635205961
port-gentil,-0.7193,8.7815,297.13,297.13,100,90,1.03,GA,1635205962
banyo,6.75,11.8167,292.02,292.02,91,98,1.3,CM,1635205962
mobile,30.7835,-88.2,300.03,298.45,75,20,2.06,US,1635205456
abu samrah,35.3029,37.1841,290.06,290.06,64,42,1.69,SY,1635205963
kruisfontein,-34.0033,24.7314,286.03,286.03,95,6,2.25,ZA,1635205964
oksfjord,70.2396,22.3479,271.66,270.72,93,80,4.42,NO,1635205964
castro,-24.7911,-50.0119,287.7,287.7,93,57,1.51,BR,1635205965
coronon,6.8792,125.4489,298.11,298.11,81,100,0.97,PH,1635205965
solnechnyy,50.7214,136.6319,278.68,278.68,69,45,2.15,RU,1635205966
juneau,58.3019,-134.4197,279.73,277.95,92,90,0.0,US,1635205967
anadyr,64.75,177.4833,257.43,257.43,78,20,7.0,RU,1635205967
fortuna,40.5982,-124.1573,289.22,288.79,66,90,0.89,US,1635205774
maracacume,-2.0428,-45.9592,298.31,298.31,82,50,1.71,BR,1635205968
victoria,22.2855,114.1577,297.22,296.09,74,99,0.89,HK,1635205772
albion,42.2431,-84.753,282.25,281.26,92,90,2.57,US,1635205969
iqaluit,63.7506,-68.5145,273.0,272.98,86,90,1.79,CA,1635205701
nixa,37.0434,-93.2944,287.14,284.44,82,4,1.34,US,1635205970
bengkulu,-3.8004,102.2655,297.24,297.24,88,100,1.33,ID,1635205832
luderitz,-26.6481,15.1594,286.87,286.87,90,3,2.7,NA,1635205399
sehithwa,-20.4667,22.7167,297.2,297.2,52,42,1.67,BW,1635205971
meulaboh,4.1363,96.1285,297.12,297.12,88,91,1.62,ID,1635205889
portland,45.5234,-122.6762,285.84,284.4,90,90,1.79,US,1635205863
vostok,46.4856,135.8833,279.62,279.62,57,1,1.17,RU,1635205729
hamilton,39.1834,-84.5333,285.51,284.77,91,90,0.45,US,1635205391
natagaima,3.6206,-75.0941,299.99,299.99,75,49,0.23,CO,1635205972
sao jose da coroa grande,-8.8978,-35.1478,298.82,298.82,73,44,5.76,BR,1635205973
lewiston,44.1003,-70.2148,280.72,279.11,98,90,2.57,US,1635205747
bagdarin,54.4333,113.6,271.5,271.5,73,89,1.5,RU,1635205974
chupa,66.27,33.0549,273.06,273.06,98,100,3.5,RU,1635205974
shimoda,34.6667,138.95,290.35,288.76,83,100,7.12,JP,1635205377
busselton,-33.65,115.3333,282.62,282.62,72,97,0.71,AU,1635205693
norman wells,65.282,-126.8329,268.17,268.17,93,90,1.54,CA,1635205975
kodiak,57.79,-152.4072,279.88,279.88,70,90,5.14,US,1635205838
rantauprapat,2.1,99.8333,296.65,296.65,96,97,0.69,ID,1635205975
caninde,-4.3589,-39.3117,299.03,299.03,65,7,1.4,BR,1635205976
avarua,-21.2078,-159.775,298.18,298.18,61,75,5.14,CK,1635205679
vredendal,-31.6683,18.5012,294.38,294.38,32,77,3.63,ZA,1635205977
kirakira,-10.4544,161.9205,303.46,303.46,66,12,5.11,SB,1635205977
yagodnoye,62.55,149.6667,256.29,256.29,89,27,1.18,RU,1635205978
kaitangata,-46.2817,169.8464,286.36,286.36,79,100,3.09,NZ,1635205978
mapiripan,2.8892,-72.1256,296.42,296.42,96,98,2.76,CO,1635205797
kemijarvi,66.7131,27.4306,271.98,271.98,98,100,2.15,FI,1635205979
port augusta,-32.5,137.7667,298.54,298.54,14,22,5.95,AU,1635205979
bitung,1.4451,125.1824,301.62,301.62,69,31,1.85,ID,1635205980
lamar,33.6668,-95.5836,299.96,296.34,57,1,2.57,US,1635205980
alamosa,37.4695,-105.87,291.88,291.88,25,13,7.84,US,1635205981
leh,34.1667,77.5833,269.84,269.84,70,20,0.85,IN,1635205982
cabo san lucas,22.8909,-109.9124,304.05,302.27,57,1,5.66,MX,1635205805
zlobin,45.2924,14.6541,277.13,276.94,68,0,0.51,HR,1635205982
bathsheba,13.2167,-59.5167,301.49,301.49,74,40,9.77,BB,1635205688
port lincoln,-34.7333,135.8667,294.5,294.5,39,100,7.74,AU,1635205738
san quintin,30.4833,-115.95,292.2,292.2,72,6,6.24,MX,1635205695
abnub,27.2696,31.1511,292.27,292.27,52,0,3.87,EG,1635205983
arman,59.7,150.1667,269.42,269.42,63,98,1.11,RU,1635205984
novoanninskiy,50.5287,42.6747,271.39,271.39,71,15,2.07,RU,1635205984
baykit,61.67,96.37,268.48,268.48,88,92,3.4,RU,1635205985
auki,-8.7676,160.7034,303.72,303.72,61,43,1.77,SB,1635205986
kiunga,-6.1219,141.2906,302.41,302.41,72,97,0.32,PG,1635205986
camana,-16.6228,-72.7111,290.25,290.25,78,18,2.79,PE,1635205987
gigmoto,13.7796,124.39,301.25,301.25,81,99,4.19,PH,1635205987
torbay,47.6666,-52.7314,277.74,276.8,81,90,5.14,CA,1635205988
wilmington,34.2257,-77.9447,295.32,293.63,84,40,0.0,US,1635205830
raudeberg,61.9875,5.1352,282.52,280.92,93,98,1.79,NO,1635205989
aklavik,68.2191,-135.0107,269.61,269.61,96,96,0.75,CA,1635205368
tuatapere,-46.1333,167.6833,288.66,288.66,85,88,1.39,NZ,1635205989
moose factory,51.2585,-80.6094,277.15,277.14,93,90,1.54,CA,1635205414
gisborne,-38.6533,178.0042,297.56,297.56,67,34,2.54,NZ,1635205819
peterhead,57.5058,-1.7981,281.37,279.32,72,52,6.32,GB,1635205991
sur,22.5667,59.5289,299.35,299.35,70,1,4.31,OM,1635205916
mitu,1.1983,-70.1733,294.76,294.76,99,100,1.09,CO,1635205991
ozernovskiy,51.5,156.5167,279.16,279.16,81,39,6.5,RU,1635205992
hami,42.8,93.45,280.54,280.54,36,0,3.57,CN,1635205953
gamba,-2.65,10.0,297.6,297.6,90,100,2.79,GA,1635205992
vardo,70.3705,31.1107,274.59,274.59,78,100,10.91,NO,1635205863
klaksvik,62.2266,-6.589,279.66,279.66,76,99,3.62,FO,1635205993
tasiilaq,65.6145,-37.6368,274.24,274.24,78,100,3.3,GL,1635205703
berlevag,70.8578,29.0864,274.2,274.2,76,97,12.01,NO,1635205786
skjervoy,70.0311,20.9714,273.47,273.47,71,98,6.97,NO,1635205994
mount isa,-20.7333,139.5,306.02,306.02,22,5,3.6,AU,1635205851
alice springs,-23.7,133.8833,301.9,301.9,42,7,5.14,AU,1635205380
comodoro rivadavia,-45.8667,-67.5,288.07,288.07,41,75,9.26,AR,1635205995
new norfolk,-42.7826,147.0587,287.4,286.48,41,19,0.84,AU,1635205772
avera,33.194,-82.5271,296.9,295.16,82,49,3.27,US,1635205432
puerto carreno,6.189,-67.4859,301.02,301.02,73,98,0.98,CO,1635205262
longyearbyen,78.2186,15.6401,266.06,266.06,58,0,7.2,SJ,1635205996
jaguaruna,-28.615,-49.0256,291.07,291.07,86,0,2.21,BR,1635205997
whyalla,-33.0333,137.5833,297.09,297.09,17,47,6.17,AU,1635205997
saint-augustin,51.226,-58.6502,276.27,276.27,69,39,3.81,CA,1635205998
riyadh,24.6877,46.7219,296.23,296.23,43,0,3.14,SA,1635205998
wanning,18.8003,110.3967,295.69,295.69,85,100,4.26,CN,1635205958
yulara,-25.2406,130.9889,300.06,300.06,36,1,3.6,AU,1635205874
nizwa,22.9333,57.5333,297.82,297.82,47,1,0.82,OM,1635205999
saint-francois,46.4154,3.9054,283.53,283.1,96,90,1.54,FR,1635206000
leningradskiy,69.3833,178.4167,260.6,260.6,94,100,7.12,RU,1635206001
weyburn,49.6668,-103.8511,280.47,280.27,70,89,10.8,CA,1635206001
cockburn town,21.4612,-71.1419,301.38,301.38,78,29,7.55,TC,1635205431
kapoeta,4.7717,33.5903,300.97,300.97,46,83,6.0,SS,1635206002
yar-sale,66.8333,70.8333,265.23,265.23,93,88,1.69,RU,1635205456
tessalit,20.1986,1.0114,302.81,302.81,19,81,3.68,ML,1635206002
ostrovnoy,68.0531,39.5131,266.99,266.99,93,71,2.76,RU,1635205330
hay river,60.8156,-115.7999,279.14,279.14,81,75,3.09,CA,1635205941
uyuni,-20.4597,-66.825,283.27,283.27,36,12,10.7,BO,1635206003
nerchinsk,51.9833,116.5833,272.92,272.92,76,6,2.32,RU,1635206004
slavyanka,42.8633,131.3847,284.25,284.25,65,0,1.07,RU,1635206005
scalea,39.813,15.7956,290.01,290.01,75,93,5.91,IT,1635206005
kodinar,20.7903,70.7031,296.6,296.6,51,22,5.2,IN,1635206006
fort nelson,58.8053,-122.7002,271.92,271.92,100,90,1.03,CA,1635205767
esperance,-33.8667,121.9,286.06,286.06,63,64,1.79,AU,1635206007
chokurdakh,70.6333,147.9167,242.88,242.88,100,86,0.74,RU,1635206008
lakselv,70.0513,24.9718,271.05,270.05,86,90,1.54,NO,1635206008
okha,53.5739,142.9478,278.58,278.58,72,17,2.34,RU,1635206009
vila velha,-20.3297,-40.2925,296.12,296.12,83,75,5.14,BR,1635206009
saint-joseph,-21.3667,55.6167,294.35,293.42,79,29,5.47,RE,1635206010
muli,2.9167,73.5667,301.31,301.31,76,100,7.73,MV,1635205900
geraldton,-28.7667,114.6,287.38,287.38,88,75,4.12,AU,1635205826
port moresby,-9.4431,147.1797,301.83,301.83,74,75,1.54,PG,1635206011
kalmunai,7.4167,81.8167,298.61,298.61,85,95,3.08,LK,1635206011
kultayevo,57.8943,55.9392,271.14,271.14,80,90,3.0,RU,1635206012
asau,46.4333,26.4,273.86,273.76,68,0,1.17,RO,1635205452
waddan,29.1614,16.139,294.5,294.5,40,0,1.25,LY,1635206013
mattawa,46.7379,-119.9028,289.44,286.46,43,98,7.11,US,1635205815
xuanhua,40.6103,115.0447,281.7,281.7,39,11,3.18,CN,1635206013
porbandar,21.6422,69.6093,297.45,297.45,50,0,3.42,IN,1635205464
araouane,18.9048,-3.5265,302.88,302.88,20,5,4.66,ML,1635206014
arlit,18.7369,7.3853,301.26,301.26,13,0,1.93,NE,1635205450
jeremie,18.65,-74.1167,300.23,300.23,79,44,0.59,HT,1635206015
tual,-5.6667,132.75,301.8,301.8,74,58,4.16,ID,1635206015
christchurch,-43.5333,172.6333,295.94,289.95,72,75,0.45,NZ,1635206015
san isidro,-12.1167,-77.05,292.05,290.05,81,90,0.89,PE,1635206016
pineville,31.3224,-92.4343,301.31,298.98,71,0,2.81,US,1635206016
lompoc,34.6391,-120.4579,292.35,289.51,76,40,5.66,US,1635205718
kavieng,-2.5744,150.7967,301.97,301.97,70,96,1.97,PG,1635205720
xining,36.6167,101.7667,274.69,274.69,94,100,1.14,CN,1635206018
labuhan,-6.8844,112.2051,301.1,301.1,71,43,2.88,ID,1635205424
birin,26.8865,88.0718,284.51,284.51,86,0,2.25,NP,1635206018
namibe,-15.1961,12.1522,290.17,290.17,81,12,3.56,AO,1635206019
taguatinga,-12.3857,-46.5711,300.48,300.48,62,74,0.48,BR,1635206019
westport,41.1415,-73.3579,293.82,290.22,92,100,0.45,US,1635205933
butaritari,3.0707,172.7902,300.79,300.79,75,41,3.06,KI,1635205737
tabou,4.423,-7.3528,298.04,298.04,84,100,3.53,CI,1635206020
yaan,7.3833,8.5667,296.36,296.36,94,99,2.61,NG,1635206020
hovd,48.0056,91.6419,273.27,273.27,52,8,0.14,MN,1635206021
yumen,40.2833,97.2,276.15,276.15,54,19,1.94,CN,1635205415
san carlos de bariloche,-41.1456,-71.3082,284.01,284.01,66,75,9.77,AR,1635206021
ahipara,-35.1667,173.1667,293.6,293.6,65,24,2.52,NZ,1635206022
dubbo,-32.25,148.6167,291.22,291.22,48,0,4.12,AU,1635206023
turukhansk,65.8167,87.9833,263.52,263.52,97,99,3.34,RU,1635206023
igarka,67.4667,86.5833,263.74,263.74,96,93,3.6,RU,1635206024
katherine,-14.4667,132.2667,304.33,304.33,55,20,3.6,AU,1635206024
catalina,32.5056,-110.9211,303.29,302.43,20,0,1.79,US,1635206025
yuksekova,37.5736,44.2872,277.09,277.09,48,98,1.01,TR,1635206025
mahebourg,-20.4081,57.7,295.51,295.31,83,40,5.66,MU,1635206025
qeshm,26.9581,56.2719,301.09,297.08,67,0,2.96,IR,1635206026
bjornevatn,69.6672,29.9847,269.34,269.34,93,90,3.6,NO,1635206026
chuy,-33.6971,-53.4616,289.01,289.01,76,0,3.31,UY,1635205857
kahului,20.8947,-156.47,302.58,300.83,68,20,11.32,US,1635206027
grand bend,43.3168,-81.7498,281.1,279.27,68,100,6.26,CA,1635206027
santa rosa,14.3122,121.1114,300.98,300.5,75,71,4.21,PH,1635206028
chongwe,-15.3292,28.682,295.25,295.25,48,28,2.93,ZM,1635206028
samarai,-10.6167,150.6667,301.68,301.68,73,51,4.66,PG,1635205450
mount gambier,-37.8333,140.7667,286.1,286.1,67,49,4.63,AU,1635205917
brownsville,25.9018,-97.4975,304.21,301.46,80,93,2.68,US,1635206029
dingle,10.9995,122.6711,300.27,300.27,84,99,3.25,PH,1635206029
kuito,-12.3833,16.9333,289.59,289.59,81,56,2.66,AO,1635205849
noumea,-22.2763,166.4572,301.14,299.82,99,0,5.64,NC,1635206030
xichang,27.8964,102.2634,287.34,287.34,85,78,0.91,CN,1635206030
palana,59.1167,159.9667,272.49,272.49,84,100,9.82,RU,1635206031
ramshir,30.8946,49.4092,290.01,290.01,18,0,1.98,IR,1635206031
madaoua,14.073,5.96,303.45,303.45,16,11,3.68,NE,1635206031
tommot,58.9564,126.2925,274.32,274.32,94,99,3.49,RU,1635206032
tapes,-30.6733,-51.3958,291.74,291.74,64,0,2.82,BR,1635206032
walvis bay,-22.9575,14.5053,288.76,287.68,82,0,2.57,NA,1635206033
melilla,35.2937,-2.9383,291.36,291.36,77,20,2.06,ES,1635205920
at-bashi,41.1702,75.8106,270.65,270.65,65,7,1.55,KG,1635206034
belaya gora,68.5333,146.4167,254.63,254.63,95,90,0.76,RU,1635206034
sao filipe,14.8961,-24.4956,299.26,299.26,76,43,3.98,CV,1635206035
hailar,49.2,119.7,273.64,273.64,79,27,5.04,CN,1635206035
pavilosta,56.8879,21.1859,283.12,283.1,76,100,6.57,LV,1635206036
marzuq,14.4,46.4667,294.0,294.0,50,21,0.47,YE,1635206037
zhigansk,66.7697,123.3711,268.08,268.08,96,100,5.57,RU,1635206038
shitanjing,39.2342,106.3439,278.22,278.22,36,83,1.06,CN,1635206039
ontario,34.0633,-117.6509,289.07,286.43,91,90,1.79,US,1635205949
angoche,-16.2325,39.9086,297.93,297.93,92,2,1.82,MZ,1635205926
huilong,31.8111,121.655,292.0,291.18,66,55,1.3,CN,1635206039
murgab,37.4966,61.9714,283.08,283.08,62,8,0.0,TM,1635206040
harper,4.375,-7.7169,298.61,298.61,80,100,4.12,LR,1635206040
launceston,-41.45,147.1667,287.12,286.1,64,90,3.13,AU,1635206041
boden,65.8252,21.6886,273.15,273.15,99,100,0.35,SE,1635206042
lagoa,39.05,-27.9833,292.74,292.74,73,1,5.76,PT,1635205910
barranca,-10.75,-77.7667,289.91,289.91,84,38,4.07,PE,1635206004
road town,18.4167,-64.6167,301.59,301.17,78,40,3.6,VG,1635206043
vondrozo,-22.8167,47.2833,290.98,290.98,98,50,0.57,MG,1635206043
fleetwood,53.9253,-3.0109,282.06,281.63,79,64,5.97,GB,1635206044
manzhouli,49.6,117.4333,272.82,272.82,79,5,8.26,CN,1635206045
mont-dore,-22.2833,166.5833,301.14,299.82,99,11,4.8,NC,1635206045
ilulissat,69.2167,-51.1,255.17,255.17,79,0,2.06,GL,1635206046
bintulu,3.1667,113.0333,298.38,298.1,94,40,1.34,MY,1635206046
coquimbo,-29.9533,-71.3436,288.0,288.0,88,90,2.57,CL,1635206024
srednekolymsk,67.45,153.6833,253.63,253.63,96,84,2.15,RU,1635206047
nuristan,35.3,70.8333,269.06,269.06,64,10,2.8,AF,1635206047
akyab,20.15,92.9,297.65,297.65,87,37,2.44,MM,1635206048
la ronge,55.1001,-105.2842,279.29,279.29,65,90,7.72,CA,1635206049
novoagansk,61.9449,76.6625,271.54,271.54,93,100,5.05,RU,1635206049
douentza,14.9951,-2.9517,305.93,305.93,31,90,3.44,ML,1635206050
rosetta,31.4044,30.4164,296.05,296.05,68,0,4.29,EG,1635206051
haines junction,60.7522,-137.5108,272.12,272.12,69,100,0.51,CA,1635206051
mamit,23.9333,92.4833,289.56,289.56,99,20,0.74,IN,1635206052
touros,-5.1989,-35.4608,300.65,300.65,65,9,7.73,BR,1635206052
sukhumi,43.0033,41.0153,279.69,279.69,66,22,2.61,GE,1635206053
axim,4.8699,-2.2405,298.72,298.72,88,85,4.54,GH,1635206054
poronaysk,49.2167,143.1167,282.96,282.96,63,2,2.87,RU,1635206055
tilichiki,60.4667,166.1,272.55,272.55,94,100,6.31,RU,1635206055
biograd na moru,43.9433,15.4519,283.57,279.54,53,100,2.03,HR,1635206056
opuwo,-18.0607,13.84,292.47,292.47,27,4,3.68,NA,1635206057
hanmer springs,-42.5167,172.8167,295.89,295.89,41,76,1.32,NZ,1635206057
dharchula,29.85,80.5333,285.1,285.1,41,0,3.42,IN,1635206058
sorland,67.667,12.6934,282.5,282.5,89,100,9.01,NO,1635206058
arraial do cabo,-22.9661,-42.0278,294.04,294.04,87,93,4.87,BR,1635206059
mareeba,-17.0,145.4333,302.31,302.24,34,29,3.28,AU,1635206059
nouadhibou,20.931,-17.0347,296.14,296.14,60,100,8.23,MR,1635205997
itaueira,-7.6033,-43.0256,302.45,302.45,52,88,2.09,BR,1635206060
kamenka,51.3223,42.7678,270.78,270.78,74,17,2.16,RU,1635206060
aykhal,66.0,111.5,260.29,260.29,97,90,4.15,RU,1635205780
coihaique,-45.5752,-72.0662,281.12,281.12,87,90,2.06,CL,1635205924
veraval,20.9,70.3667,297.29,297.29,52,1,5.7,IN,1635206022
tala,30.6803,30.9429,290.97,290.97,81,0,2.63,EG,1635206061
altenholz,54.4,10.1333,284.04,283.29,94,90,3.09,DE,1635206062
maputo,-25.9653,32.5892,289.97,289.94,90,75,3.13,MZ,1635205825
birjand,32.8663,59.2211,278.41,278.41,30,0,4.12,IR,1635206063
washington,47.5001,-120.5015,285.42,283.07,76,95,1.16,US,1635205833
sungaipenuh,-2.0833,101.3833,292.9,292.9,91,99,0.41,ID,1635206063
qazax,41.0933,45.3661,280.1,280.1,66,39,2.64,AZ,1635206064
gibsons,49.3997,-123.5027,285.19,283.9,95,100,8.03,CA,1635205767
tiksi,71.6872,128.8694,255.9,255.9,97,98,2.14,RU,1635206064
rocha,-34.4833,-54.3333,286.5,286.5,82,1,1.29,UY,1635205827
laramie,41.3114,-105.5911,288.2,286.02,32,99,3.81,US,1635205855
santiago del estero,-27.7951,-64.2615,299.71,299.71,15,0,4.32,AR,1635205944
gushikawa,26.3544,127.8686,296.72,294.04,76,1,2.06,JP,1635206065
payo,-3.7508,103.6372,296.97,296.97,94,100,0.49,ID,1635206066
dunmore town,25.5,-76.65,300.73,300.73,82,99,6.14,BS,1635206067
dibulla,11.2725,-73.3091,300.41,300.41,77,51,2.76,CO,1635206068
isangel,-19.55,169.2667,302.21,302.21,65,20,5.14,VU,1635205776
kaukauna,44.278,-88.272,283.47,280.06,73,40,1.34,US,1635205976
agboville,5.928,-4.2132,296.43,296.43,99,100,1.12,CI,1635206069
tevaitoa,-16.7833,-151.5,296.9,296.9,89,99,2.81,PF,1635206070
kieta,-6.2167,155.6333,303.39,303.39,66,30,2.41,PG,1635206070
dali,25.7,100.1833,284.92,284.92,94,22,1.47,CN,1635206070
alta floresta,-9.8756,-56.0861,296.42,296.42,87,98,1.49,BR,1635206071
redmond,47.674,-122.1215,285.88,284.7,80,100,4.47,US,1635205907
hargeysa,9.56,44.065,292.35,292.35,81,58,1.95,SO,1635206071
manggar,-2.8833,108.2667,300.48,300.48,76,36,1.55,ID,1635206072
khipro,25.8285,69.3772,297.31,297.31,40,0,3.55,PK,1635206073
hualmay,-11.0964,-77.6139,290.3,290.3,83,55,4.75,PE,1635206073
inhambane,-23.865,35.3833,295.79,295.79,79,49,3.09,MZ,1635206074
vikarabad,17.3333,77.9,292.92,292.92,72,5,3.12,IN,1635206074
sandwick,60.0,-1.25,283.05,283.05,76,20,9.26,GB,1635206075
manta,-0.95,-80.7333,298.03,298.03,78,75,2.57,EC,1635206076
olavarria,-36.8927,-60.3225,290.0,290.0,55,41,3.0,AR,1635206002
swan river,52.1058,-101.2676,281.09,281.09,61,99,2.57,CA,1635206076
karpogory,64.0019,44.4451,266.57,266.57,97,100,1.54,RU,1635206077
nanortalik,60.1432,-45.2371,274.47,274.47,65,43,4.39,GL,1635206077
faya,18.3851,42.4509,288.21,286.44,75,0,1.07,SA,1635206078
richards bay,-28.783,32.0377,290.38,290.38,95,100,1.3,ZA,1635206078
dalvik,65.9702,-18.5286,271.11,271.11,76,32,2.75,IS,1635206079
nyrob,60.733,56.7202,269.97,269.97,93,99,2.58,RU,1635206079
buala,-8.145,159.5921,302.82,302.82,67,63,3.77,SB,1635206080
grindavik,63.8424,-22.4338,276.12,275.41,93,75,2.06,IS,1635206080
chapais,49.7834,-74.8492,276.03,276.03,88,95,2.21,CA,1635206081
poya,-21.35,165.15,299.61,299.61,54,1,1.96,NC,1635206081
mwingi,-0.9344,38.0601,293.12,293.12,85,36,2.47,KE,1635206081
virginia beach,36.8529,-75.978,294.27,293.34,92,100,6.61,US,1635206082
khasan,42.4308,130.6434,283.76,283.76,61,10,1.38,RU,1635206082
bubaque,11.2833,-15.8333,301.36,301.36,75,91,2.93,GW,1635206082
bella vista,36.4295,-94.2316,289.66,286.97,79,1,3.09,US,1635206083
nishihara,26.1842,127.7558,296.75,295.87,66,20,2.57,JP,1635206083
verkhnyaya inta,65.9811,60.3094,264.68,264.68,88,68,6.45,RU,1635206084
talnakh,69.4865,88.3972,264.06,264.06,96,100,2.59,RU,1635206085
sao gabriel da cachoeira,-0.1303,-67.0892,295.9,295.9,97,96,0.57,BR,1635206085
praya,14.9215,-23.5087,299.45,299.45,83,40,7.2,CV,1635206086
hofgeismar,51.4833,9.4,284.75,281.74,94,78,2.71,DE,1635206086
adre,13.4667,22.2,297.31,297.31,23,34,3.96,TD,1635206087
kroya,-7.6331,109.2461,299.68,299.68,77,86,2.37,ID,1635206087
durban,-29.8579,31.0292,289.83,289.82,95,100,0.89,ZA,1635205873
pachmarhi,22.4667,78.4333,287.67,287.67,64,23,0.76,IN,1635206088
smithers,54.7804,-127.1743,279.33,279.33,93,90,1.03,CA,1635205821
svobodnyy,51.4,128.1333,276.97,276.97,71,30,0.19,RU,1635206088
lajas,18.05,-67.0593,300.99,299.59,77,61,0.89,PR,1635206089
korla,41.7597,86.1469,280.71,280.71,44,0,1.67,CN,1635206089
pokhara,28.2333,83.9833,288.13,288.13,56,1,3.16,NP,1635206090
sobolevo,54.4299,31.8996,274.05,274.05,72,84,4.82,RU,1635206090
samut prakan,13.5,100.45,301.48,297.87,85,92,2.62,TH,1635206091
te anau,-45.4167,167.7167,291.23,291.23,68,57,1.04,NZ,1635205871
talcahuano,-36.7167,-73.1167,288.97,288.97,72,0,7.72,CL,1635206091
alyangula,-13.8483,136.4192,303.08,303.08,74,47,0.0,AU,1635206022
santa helena,-2.2311,-45.3,297.97,297.97,86,53,1.19,BR,1635206092
ko samui,9.5357,99.9357,300.85,300.85,73,76,2.86,TH,1635206093
ancud,-41.8697,-73.8203,284.5,283.89,95,100,6.4,CL,1635205931
bassar,9.25,0.7833,297.21,297.21,77,30,1.2,TG,1635206094
narsaq,60.9167,-46.05,273.3,273.3,47,22,4.19,GL,1635206094
boende,-0.2167,20.8667,294.99,294.99,92,51,0.97,CD,1635206095
qingquan,30.4511,115.2559,288.62,288.62,71,84,0.88,CN,1635206095
znamenskoye,57.1281,73.8282,278.43,278.43,95,100,4.29,RU,1635206096
darnah,32.767,22.6367,294.45,294.45,79,86,8.26,LY,1635206096
rovaniemi,66.5,25.7167,273.82,273.82,100,90,2.06,FI,1635206097
dakar,14.6937,-17.4441,300.64,300.22,83,100,2.06,SN,1635205987
gimli,50.6336,-96.9907,281.16,281.16,71,61,8.23,CA,1635206098
ucluelet,48.9329,-125.5528,284.87,284.7,89,100,1.79,CA,1635206098
shanting,35.0753,117.4578,286.86,286.86,72,89,0.97,CN,1635206099
svetlogorsk,52.6333,29.7333,274.67,274.67,65,88,3.97,BY,1635206099
san borja,-14.8167,-66.85,295.42,295.42,58,43,1.81,BO,1635206100
lavrentiya,65.5833,-171.0,265.59,265.59,75,100,4.25,RU,1635206100
grafton,42.207,-71.6856,286.28,283.11,87,90,0.45,US,1635205905
saint michael,45.21,-93.665,282.46,280.2,61,1,2.57,US,1635206101
matagami,49.7502,-77.6328,276.21,276.21,81,75,2.57,CA,1635206101
trinidad,-14.8333,-64.9,300.14,300.14,61,77,0.0,BO,1635206102
taoudenni,22.6783,-3.9836,303.1,303.1,17,77,4.51,ML,1635205865
brenham,30.1669,-96.3977,302.8,300.68,78,1,0.0,US,1635206103
tomatlan,19.9333,-105.25,297.18,297.18,91,98,1.57,MX,1635206104
misratah,32.3754,15.0925,295.21,295.21,66,0,5.25,LY,1635206105
karratha,-20.7377,116.8463,299.59,299.59,35,10,6.82,AU,1635205955
grenfell,-33.9,148.1667,291.36,291.36,31,0,2.0,AU,1635206105
lazurne,46.084,32.5295,280.63,280.63,57,0,4.12,UA,1635206106
nemuro,43.3236,145.575,282.39,282.39,80,100,4.04,JP,1635206106
morant bay,17.8815,-76.4093,300.94,299.63,80,54,3.38,JM,1635206107
west warwick,41.6969,-71.5219,289.02,285.74,97,100,0.45,US,1635206107
shingu,33.7333,135.9833,290.7,290.7,74,54,2.74,JP,1635206108
saurimo,-9.6608,20.3916,290.59,290.59,94,39,0.92,AO,1635206108
hvolsvollur,63.7533,-20.2243,274.71,274.71,83,100,0.63,IS,1635206109
flinders,-34.5833,150.8552,294.71,293.43,57,7,1.79,AU,1635206109
ventersburg,-28.0856,27.1381,284.82,284.82,87,46,5.48,ZA,1635206109
komsomolskiy,40.4272,71.7189,280.55,280.55,49,4,3.09,UZ,1635206110
bethel,41.3712,-73.414,292.59,287.28,89,90,2.06,US,1635205862
gallup,35.5281,-108.7426,293.72,293.72,26,0,1.79,US,1635206110
bealanana,-14.55,48.7333,288.55,288.55,92,72,1.78,MG,1635206111
frontera,26.9333,-101.45,303.33,303.33,47,34,1.79,MX,1635206111
vao,-22.6667,167.4833,295.49,295.49,71,35,6.46,NC,1635206111
gardendale,33.6601,-86.8128,293.77,292.34,91,40,3.69,US,1635206112
nantucket,41.2835,-70.0995,292.09,290.62,89,100,6.99,US,1635206112
washougal,45.5826,-122.3534,285.76,284.25,91,90,1.79,US,1635206113
pangkalanbuun,-2.6833,111.6167,299.06,299.06,89,81,0.14,ID,1635206113
arawa,-6.2132,155.5367,304.77,304.77,60,33,1.55,PG,1635206113
lieksa,63.3167,30.0167,279.1,279.1,97,100,4.84,FI,1635206114
mwense,-10.3845,28.698,292.99,292.99,81,98,1.34,ZM,1635206114
hearst,49.6835,-83.6665,275.29,275.29,84,96,1.91,CA,1635206115
porto novo,6.4965,2.6036,300.05,300.05,89,99,2.32,BJ,1635206115
minudasht,37.2289,55.3747,286.3,286.3,79,1,1.22,IR,1635206116
babra,21.85,71.3,298.49,298.49,42,86,3.25,IN,1635206116
teya,60.3778,92.6267,269.74,269.74,86,97,2.43,RU,1635206073
sacramento,38.4666,-121.3177,292.12,290.53,60,1,3.13,US,1635205912
tura,25.5198,90.2201,291.54,291.54,93,0,1.16,IN,1635206117
amberley,39.2048,-84.428,285.21,284.32,91,90,0.89,US,1635206117
deputatskiy,69.3,139.9,254.55,254.55,98,99,0.86,RU,1635206118
carmen,18.6333,-91.8333,301.51,301.51,78,51,3.78,MX,1635206118
kambove,-10.8764,26.5969,289.77,289.77,85,99,1.0,CD,1635206119
luancheng,37.8792,114.6517,282.24,282.24,55,100,0.97,CN,1635206119
lodwar,3.1191,35.5973,300.67,300.67,56,72,7.74,KE,1635206120
beboto,8.2668,16.939,296.96,296.96,80,52,1.78,TD,1635206120
acari,-15.4311,-74.6158,292.68,292.68,69,25,1.97,PE,1635206121
saint-pierre,-21.3393,55.4781,294.95,294.05,78,0,2.06,RE,1635206121
ararangua,-28.9347,-49.4858,293.07,293.07,84,0,0.65,BR,1635206121
cherlak,54.155,74.8055,281.1,281.1,57,100,3.95,RU,1635206122
shahabad,27.65,79.95,292.69,292.69,74,0,2.75,IN,1635206122
bowen,-20.0167,148.2333,301.27,301.27,66,98,5.02,AU,1635206123
barranco,9.5167,-82.7,302.01,302.01,88,62,0.65,PA,1635206123
baghdad,33.3406,44.4009,289.1,289.1,48,0,1.03,IQ,1635205899
mnogovershinnyy,53.9353,139.9242,276.39,276.39,76,44,1.75,RU,1635206124
abonnema,4.7084,6.7931,297.84,297.84,91,99,1.8,NG,1635206124
gadsden,34.0143,-86.0066,294.16,292.61,85,46,3.09,US,1635206125
okhotsk,59.3833,143.3,268.14,268.14,75,46,4.13,RU,1635205992
toamasina,-18.1667,49.3833,296.65,296.65,82,96,3.32,MG,1635206000
saint-georges,12.0564,-61.7485,300.97,300.97,83,40,6.17,GD,1635205934
almansa,38.8692,-1.0971,285.71,284.5,94,91,1.89,ES,1635206125
xiuyan,40.2928,123.2744,284.75,284.75,86,98,0.8,CN,1635206126
toppenish,46.3774,-120.3087,287.49,285.94,66,84,5.79,US,1635206126
mangrul pir,20.3167,77.35,292.47,292.47,60,0,1.22,IN,1635206126
saint-paul,-21.0096,55.2707,295.2,294.14,87,15,0.89,RE,1635206127
emmaus,40.5395,-75.4968,293.54,291.31,85,1,0.0,US,1635206127
uirauna,-6.5183,-38.4122,301.59,301.59,42,7,4.06,BR,1635206128
zhezkazgan,47.8043,67.7144,280.59,280.59,43,94,2.4,KZ,1635206128
calvinia,-31.4707,19.776,289.91,289.91,29,55,3.45,ZA,1635206129
boguchany,58.3814,97.4531,277.56,277.56,91,82,5.84,RU,1635206129
kisangani,0.5167,25.2,294.69,294.69,98,100,0.57,CD,1635206129
dzhebariki-khaya,62.2167,135.8,271.54,271.54,97,100,1.58,RU,1635206130
gerash,27.6652,54.1371,290.45,290.45,29,0,0.48,IR,1635206130
husavik,66.0449,-17.3389,271.1,271.1,77,93,2.63,IS,1635206130
yerbogachen,61.2767,108.0108,272.93,272.93,98,100,3.49,RU,1635206131
dawei,14.0833,98.2,296.83,296.83,87,86,2.07,MM,1635206131
moncao,42.0789,-8.4808,289.12,287.35,88,1,1.59,PT,1635206132
namikupa,-10.8333,39.6,295.26,295.26,96,78,1.55,TZ,1635206132
zonguldak,41.25,31.8333,276.31,276.31,87,0,1.46,TR,1635206133
tiznit,29.5833,-9.5,289.48,289.48,77,0,1.32,MA,1635206133
muros,42.7762,-9.0603,289.17,283.41,95,2,2.59,ES,1635206133
szentes,46.65,20.2667,274.34,274.34,58,0,0.41,HU,1635206134
mtwara,-10.2667,40.1833,297.78,297.78,100,75,4.12,TZ,1635206134
aswan,24.0934,32.907,296.76,296.76,35,0,5.14,EG,1635205849
lumphat,13.4878,106.9816,295.16,295.16,96,90,0.9,KH,1635206135
zharkent,44.1628,80.0,280.22,280.22,49,0,1.45,KZ,1635206135
san cristobal,7.7669,-72.225,297.25,297.25,98,84,1.16,VE,1635205850
saint anthony,45.0205,-93.218,282.49,280.37,58,40,2.06,US,1635206000
maku,39.2911,44.4521,279.39,279.39,66,96,1.64,IR,1635206136
masalli,34.7959,126.6553,279.97,279.97,55,45,2.35,KR,1635206136
huangpu,25.4433,113.1747,290.18,290.18,81,12,0.44,CN,1635206137
sabang,5.8933,95.3214,300.33,300.33,77,100,3.75,ID,1635206137
balkhash,46.844,74.9804,280.1,280.1,58,34,2.24,KZ,1635206137
orodara,10.9492,-4.9342,299.36,299.36,80,57,2.0,BF,1635206138
diamantino,-14.4086,-56.4461,296.72,296.72,79,100,1.41,BR,1635206074
farah,32.5,62.5,286.51,286.51,17,0,1.63,AF,1635206138
merrill,45.1805,-89.6835,280.12,278.95,65,1,0.0,US,1635206033
dongsheng,39.8161,109.9776,276.61,276.61,44,58,4.06,CN,1635206139
yuli,9.6989,10.2744,300.17,300.17,66,96,2.92,NG,1635206139
taga,46.95,24.05,272.33,272.14,59,0,1.16,RO,1635206140
los llanos de aridane,28.6585,-17.9182,292.01,290.44,83,20,1.34,ES,1635206029
bunda,-2.05,33.8667,295.0,295.0,60,82,2.42,TZ,1635206140
mabaruma,8.2,-59.7833,296.7,296.7,99,100,0.95,GY,1635206141
roald,62.5833,6.1333,282.23,282.02,81,95,8.75,NO,1635205845
mancio lima,-7.6142,-72.8958,295.34,295.34,83,99,1.77,BR,1635206141
sorong,-0.8833,131.25,301.04,301.04,75,75,2.28,ID,1635206142
ban nahin,18.2418,104.2122,292.67,292.67,83,84,1.35,LA,1635206142
